hospital_id,name,address,city,state,zip,latitude,longitude
H001,Jackson Memorial Hospital,1611 NW 12th Ave,Miami,FL,33136,25.7617,-80.1918
H002,Mayo Clinic Jacksonville,4500 San Pablo Rd,Jacksonville,FL,32224,30.3322,-81.6557
H003,Tampa General Hospital,1 Tampa General Cir,Tampa,FL,33606,27.9506,-82.4572
H004,Orlando Health,1414 Kuhl Ave,Orlando,FL,32806,28.5383,-81.3792
H005,Tallahassee Memorial,1300 Miccosukee Rd,Tallahassee,FL,32308,30.4383,-84.2807
